time,x,y,z,w0,w1,w2,w3,vx,vy,vz,roll,pitch,yaw
0,0.0,0.0,0,0.0,0.0,0.0,1.0,0.0,0.0,0.0,0,0,0.0
0,0.0,0.0,0,0.0,0.0,0.0,1.0,0.0,0.0,0.0,0,0,0.0
0,0.0,0.0,0,0.0,0.0,0.0,1.0,0.0,0.0,0.0,0,0,0.0
0,0.0,0.0,0,0.0,0.0,0.0,1.0,0.0,0.0,0.0,0,0,0.0
0,0.0,0.0,0,0.0,0.0,0.0,1.0,0.0,0.0,0.0,0,0,0.0
0,0.0,0.0,0,0.0,0.0,0.0,1.0,0.0,0.0,0.0,0,0,0.0
0,0.0,0.0,0,0.0,0.0,0.0,1.0,0.0,0.0,0.0,0,0,0.0
0,0.0,0.0,0,0.0,0.0,0.0,1.0,0.0,0.0,0.0,0,0,0.0
0,0.0,0.0,0,0.0,0.0,0.0,1.0,0.0,0.0,0.0,0,0,0.0
0,0.0,0.0,0,0.0,0.0,0.0,1.0,0.0,0.0,0.0,0,0,0.0
0,0.0,0.0,0,0.0,0.0,0.0,1.0,0.0,0.0,0.0,0,0,0.0
0,0.0,0.0,0,0.0,0.0,0.0,1.0,0.0,0.0,0.0,0,0,0.0
0,0.02777777777777778,0.0,0,0.0,0.0,-0.004222618403552268,0.9999910847071678,0.0,0.0,0.0,0,0,0.0
0,0.05555456497187878,-0.0002345878198707046,0,0.0,0.0,-0.008725766792713354,0.9999619297722685,0.0,0.0,0.0,0,0,0.0
0,0.08332811280487207,-0.0007193341865809504,0,0.0,0.0,-0.013516431317302619,0.9999086488697079,0.0,0.0,0.0,0,0,0.0
0,0.11109574092067455,-0.001470178440804521,0,0.0,0.0,-0.018499486777299904,0.9998288698517245,0.0,0.0,0.0,0,0,0.0
0,0.1388545058645066,-0.002497751827325892,0,0.0,0.0,-0.02374116933277185,0.9997181387164648,0.0,0.0,0.0,0,0,0.0
0,0.1666009701355462,-0.003816333917120953,0,0.0,0.0,-0.02927012937709805,0.9995715379732698,0.0,0.0,0.0,0,0,0.0
0,0.19433115122033776,-0.005441755485906647,0,0.0,0.0,-0.03501787841078375,0.999386686018784,0.0,0.0,0.0,0,0,0.0
0,0.2220408038976493,-0.007386000011260086,0,0.0,0.0,-0.040928122149947885,0.9991620933648748,0.0,0.0,0.0,0,0,0.0
0,0.2497255199430537,-0.009657879355973155,0,0.0,0.0,-0.04712080186051261,0.9988891980755534,0.0,0.0,0.0,0,0,0.0
0,0.2773799438337216,-0.012272793799480071,0,0.0,0.0,-0.053480062511833744,0.9985689174582445,0.0,0.0,0.0,0,0,0.0
0,0.30499882621781776,-0.015239656473260131,0,0.0,0.0,-0.06011230041513664,0.998191620551285,0.0,0.0,0.0,0,0,0.0
0,0.3325758546255289,-0.018573189504729627,0,0.0,0.0,-0.06686991144088977,0.9977617024840588,0.0,0.0,0.0,0,0,0.0
0,0.36010521101130044,-0.02227986932051965,0,0.0,0.0,-0.07375175748401093,0.9972766307640121,0.0,0.0,0.0,0,0,0.0
0,0.3875808042484126,-0.026366030665885148,0,0.0,0.0,-0.08089525436573784,0.9967226082622499,0.0,0.0,0.0,0,0,0.0
0,0.4149950241273628,-0.03084548227296606,0,0.0,0.0,-0.08815210586460716,0.996107025490552,0.0,0.0,0.0,0,0,0.0
0,0.4423410911402314,-0.03572375627093951,0,0.0,0.0,-0.0956141335009122,0.9954184735451064,0.0,0.0,0.0,0,0,0.0
0,0.46961097655550194,-0.04101131598309596,0,0.0,0.0,-0.10316921281938898,0.9946638193511552,0.0,0.0,0.0,0,0,0.0
0,0.496797427306959,-0.04671235394211738,0,0.0,0.0,-0.11081401437521782,0.9938411614629619,0.0,0.0,0.0,0,0,0.0
0,0.5238929969857395,-0.05283077220617515,0,0.0,0.0,-0.11861881561225557,0.992939865542091,0.0,0.0,0.0,0,0,0.0
0,0.5508890845736699,-0.059374180585330436,0,0.0,0.0,-0.12649336180313903,0.9919674538107287,0.0,0.0,0.0,0,0,0.0
0,0.5777779417636555,-0.06634514158709817,0,0.0,0.0,-0.13449634635926797,0.9909140895234096,0.0,0.0,0.0,0,0,0.0
0,0.6045507602534337,-0.0737492707313659,0,0.0,0.0,-0.14254991128346245,0.9897876149927706,0.0,0.0,0.0,0,0,0.0
0,0.6311996226308269,-0.08158783388173754,0,0.0,0.0,-0.15065065845229977,0.9885870619767834,0.0,0.0,0.0,0,0,0.0
0,0.6577165325812651,-0.08986179453863904,0,0.0,0.0,-0.1588386740489478,0.9873045505953936,0.0,0.0,0.0,0,0,0.0
0,0.6840926590049524,-0.09857413596636486,0,0.0,0.0,-0.16705594829386716,0.9859474175328199,0.0,0.0,0.0,0,0,0.0
0,0.7103200095682656,-0.1077246015665779,0,0.0,0.0,-0.1752992464697951,0.9845151975399475,0.0,0.0,0.0,0,0,0.0
0,0.7363905748008834,-0.1173126444702898,0,0.0,0.0,-0.18358134985480185,0.9830045208367502,0.0,0.0,0.0,0,0,0.0
0,0.7622960130222994,-0.12733827207298887,0,0.0,0.0,-0.19185217190541376,0.9814238351167021,0.0,0.0,0.0,0,0,0.0
0,0.7880289432520314,-0.13779873286892663,0,0.0,0.0,-0.2000986721315673,0.9797757505731521,0.0,0.0,0.0,0,0,0.0
0,0.8135823055526528,-0.14869050101761538,0,0.0,0.0,-0.20827136611268887,0.9780710802684814,0.0,0.0,0.0,0,0,0.0
0,0.8389502521114058,-0.16000740101999483,0,0.0,0.0,-0.21636911131350497,0.9763116345047846,0.0,0.0,0.0,0,0,0.0
0,0.864127163648595,-0.17174316106015236,0,0.0,0.0,-0.2243598399224368,0.974506368491237,0.0,0.0,0.0,0,0,0.0
0,0.8891084226613716,-0.18388983288449065,0,0.0,0.0,-0.232062947173457,0.9727007703035756,0.0,0.0,0.0,0,0,0.0
0,0.9138943553585477,-0.1964302666330762,0,0.0,0.0,-0.23957272694614123,0.9708784210721699,0.0,0.0,0.0,0,0,0.0
0,0.9384835169420804,-0.20935226612582197,0,0.0,0.0,-0.24686271331022644,0.9690504634832559,0.0,0.0,0.0,0,0,0.0
0,0.962875672540809,-0.2226424009452669,0,0.0,0.0,-0.25365758626388907,0.9672940757240156,0.0,0.0,0.0,0,0,0.0
0,0.9870788852591855,-0.23627359430390654,0,0.0,0.0,-0.26016777629409066,0.9655634252487963,0.0,0.0,0.0,0,0,0.0
0,1.0110962590468626,-0.2502296214826779,0,0.0,0.0,-0.2658409563749349,0.9640169012593399,0.0,0.0,0.0,0,0,0.0
0,1.034947847153177,-0.264467131204477,0,0.0,0.0,-0.271418525327952,0.962461419543038,0.0,0.0,0.0,0,0,0.0
0,1.0586329573814437,-0.2789799011587781,0,0.0,0.0,-0.276107140156405,0.9611268631947872,0.0,0.0,0.0,0,0,0.0
0,1.0821754488900355,-0.2937229005767897,0,0.0,0.0,-0.280446040143158,0.9598697925073079,0.0,0.0,0.0,0,0,0.0
0,1.1055837832549256,-0.30867799404132906,0,0.0,0.0,-0.28405103545222066,0.9588091620643397,0.0,0.0,0.0,0,0,0.0
0,1.1288790615470656,-0.3238085904460764,0,0.0,0.0,-0.2872752038126728,0.9578480867415183,0.0,0.0,0.0,0,0,0.0
0,1.1520720036178649,-0.3390955906872013,0,0.0,0.0,-0.29010380053518803,0.9569951854189445,0.0,0.0,0.0,0,0,0.0
0,1.1751742138909227,-0.3545193651529742,0,0.0,0.0,-0.29261862683173073,0.9562292294377496,0.0,0.0,0.0,0,0,0.0
0,1.1981950105148733,-0.37006439204488745,0,0.0,0.0,-0.29418079744007086,0.9557497886044882,0.0,0.0,0.0,0,0,0.0
0,1.221164880426958,-0.38568457176515675,0,0.0,0.0,-0.2948836358469734,0.9555331712241442,0.0,0.0,0.0,0,0,0.0
0,1.2441117493886062,-0.4013385215264325,0,0.0,0.0,-0.2951498258575842,0.9554509826758449,0.0,0.0,0.0,0,0,0.0
0,1.2670498927383973,-0.4170052543682233,0,0.0,0.0,-0.29542808503135176,0.9553649808186966,0.0,0.0,0.0,0,0,0.0
0,1.2899789064369922,-0.4326853458565167,0,0.0,0.0,-0.2943372249948579,0.9557016260226443,0.0,0.0,0.0,0,0,0.0
0,1.3129436618804549,-0.4483130438857711,0,0.0,0.0,-0.2928115747361105,0.9561701635695182,0.0,0.0,0.0,0,0,0.0
0,1.3359581830860414,-0.4638673600696864,0,0.0,0.0,-0.2907695349658073,0.9567931215972281,0.0,0.0,0.0,0,0,0.0
0,1.3590389096158064,-0.479323265126648,0,0.0,0.0,-0.28785501251808954,0.9576740007790806,0.0,0.0,0.0,0,0,0.0
0,1.3822133258251514,-0.49463833520900974,0,0.0,0.0,-0.28426200634933907,0.9587466358461177,0.0,0.0,0.0,0,0,0.0
0,1.4055019431443874,-0.5097791820026929,0,0.0,0.0,-0.28011438408996303,0.9599666305793658,0.0,0.0,0.0,0,0,0.0
0,1.4289206060236042,-0.524718096528896,0,0.0,0.0,-0.2755745751478223,0.96127969578687,0.0,0.0,0.0,0,0,0.0
0,1.4524794201087208,-0.5394349989602679,0,0.0,0.0,-0.27034004602564876,0.9627649035537441,0.0,0.0,0.0,0,0,0.0
0,1.476196990081768,-0.5538946605346345,0,0.0,0.0,-0.2647945591265931,0.9643048488195801,0.0,0.0,0.0,0,0,0.0
0,1.5000794257182655,-0.5680803648294577,0,0.0,0.0,-0.2587389623719425,0.9659472808340477,0.0,0.0,0.0,0,0,0.0
0,1.5241379895710816,-0.5819652646710688,0,0.0,0.0,-0.2524627781614697,0.9676066068619997,0.0,0.0,0.0,0,0,0.0
0,1.548374797662359,-0.5955366342341674,0,0.0,0.0,-0.24599027268067558,0.9692722970076504,0.0,0.0,0.0,0,0,0.0
0,1.5727908413149416,-0.6087828318254305,0,0.0,0.0,-0.2392046588515957,0.9709691710778936,0.0,0.0,0.0,0,0,0.0
0,1.5973897930473688,-0.621686184565603,0,0.0,0.0,-0.23227625201408875,0.9726498561919842,0.0,0.0,0.0,0,0,0.0
0,1.6221702232001627,-0.6342374880721762,0,0.0,0.0,-0.22513470047142825,0.9743276485062098,0.0,0.0,0.0,0,0,0.0
0,1.6471321324581427,-0.6464238749225916,0,0.0,0.0,-0.21790055612709408,0.9759709768428071,0.0,0.0,0.0,0,0,0.0
0,1.6722720962158928,-0.6582385759569221,0,0.0,0.0,-0.21054437959808103,0.9775843003136144,0.0,0.0,0.0,0,0,0.0
0,1.6975871553392072,-0.6696732915132751,0,0.0,0.0,-0.20314168015328216,0.9791493541766249,0.0,0.0,0.0,0,0,0.0
0,1.7230723474383463,-0.6807236273426329,0,0.0,0.0,-0.19570470880838284,0.9806628711999992,0.0,0.0,0.0,0,0,0.0
0,1.748722328935581,-0.6913858685452656,0,0.0,0.0,-0.18825602804634242,0.9821199865109226,0.0,0.0,0.0,0,0,0.0
0,1.7745311993747042,-0.7016575356411253,0,0.0,0.0,-0.18081349856695433,0.9835174013386738,0.0,0.0,0.0,0,0,0.0
0,1.800492670415592,-0.7115371590987656,0,0.0,0.0,-0.17338827609840674,0.9848535453109882,0.0,0.0,0.0,0,0,0.0
0,1.8266002540662376,-0.7210239401227032,0,0.0,0.0,-0.1660470009333094,0.9861178395511632,0.0,0.0,0.0,0,0,0.0
0,1.852846275926296,-0.7301207128907201,0,0.0,0.0,-0.15875716259332817,0.9873176607988513,0.0,0.0,0.0,0,0,0.0
0,1.8792238405554802,-0.738828699024426,0,0.0,0.0,-0.15152855638183219,0.9884528803138963,0.0,0.0,0.0,0,0,0.0
0,1.90572601258886,-0.7471497455802832,0,0.0,0.0,-0.14446404580312613,0.9895100502118168,0.0,0.0,0.0,0,0,0.0
0,1.9323443536705374,-0.7550913358700863,0,0.0,0.0,-0.137488418516758,0.9905033744383513,0.0,0.0,0.0,0,0,0.0
0,1.9590719611579686,-0.7626570437860329,0,0.0,0.0,-0.1306099922512858,0.9914338252874566,0.0,0.0,0.0,0,0,0.0
0,1.9859020183759752,-0.7698509973548361,0,0.0,0.0,-0.12396036093141284,0.9922871705901241,0.0,0.0,0.0,0,0,0.0
0,2.0128261199825173,-0.7766845682333895,0,0.0,0.0,-0.11742927369745203,0.9930812482767404,0.0,0.0,0.0,0,0,0.0
0,2.0398378069646776,-0.7831632798838171,0,0.0,0.0,-0.1111596188914305,0.9938025654665578,0.0,0.0,0.0,0,0,0.0
0,2.0669291146940063,-0.7893005417966276,0,0.0,0.0,-0.10502515520368995,0.994469565534532,0.0,0.0,0.0,0,0,0.0
0,2.094094098959253,-0.795103004044717,0,0.0,0.0,-0.09903151111150664,0.995084297839621,0.0,0.0,0.0,0,0,0.0
0,2.12132703005964,-0.8005777096946276,0,0.0,0.0,-0.09333851437571325,0.9956344317740999,0.0,0.0,0.0,0,0,0.0
0,2.1486208034893144,-0.8057405451792444,0,0.0,0.0,-0.0877975747987021,0.996138336708043,0.0,0.0,0.0,0,0,0.0
0,2.1759703360370626,-0.810599352408521,0,0.0,0.0,-0.08241301830851748,0.9965982612935265,0.0,0.0,0.0,0,0,0.0
0,2.203370785726689,-0.8151622785615332,0,0.0,0.0,-0.0773557346708901,0.9970035558178952,0.0,0.0,0.0,0,0,0.0
0,2.2308161240774407,-0.81944694203541,0,0.0,0.0,-0.0724612489528204,0.9973712284802472,0.0,0.0,0.0,0,0,0.0
0,2.258302200044118,-0.8234619845290371,0,0.0,0.0,-0.06790011377371145,0.9976921241292411,0.0,0.0,0.0,0,0,0.0
0,2.2858238430746467,-0.8272255072367877,0,0.0,0.0,-0.06382828434929898,0.9979608960861267,0.0,0.0,0.0,0,0,0.0
0,2.313375284747815,-0.8307642923392803,0,0.0,0.0,-0.05958329881696215,0.9982233369853104,0.0,0.0,0.0,0,0,0.0
0,2.34095583088682,-0.8340685945267059,0,0.0,0.0,-0.055981563711183395,0.9984318026407466,0.0,0.0,0.0,0,0,0.0
0,2.3685595011381784,-0.8371738041695284,0,0.0,0.0,-0.05222851207687633,0.998635159868826,0.0,0.0,0.0,0,0,0.0
0,2.396185733500747,-0.8400714279755063,0,0.0,0.0,-0.04909014228155948,0.9987943521720456,0.0,0.0,0.0,0,0,0.0
0,2.4238296311635676,-0.842795370023181,0,0.0,0.0,-0.04582145367347798,0.9989496455694097,0.0,0.0,0.0,0,0,0.0
0,2.451490764184859,-0.8453383325179918,0,0.0,0.0,-0.04271808655002823,0.9990871659077122,0.0,0.0,0.0,0,0,0.0
0,2.4791671622449427,-0.8477093931860067,0,0.0,0.0,-0.039943523415500906,0.9992019390179121,0.0,0.0,0.0,0,0,0.0
0,2.5068563019636736,-0.8499267068553387,0,0.0,0.0,-0.03732877140925067,0.999303038534896,0.0,0.0,0.0,0,0,0.0
0,2.5345566665650665,-0.8519990821161186,0,0.0,0.0,-0.03502836688188742,0.9993863184542742,0.0,0.0,0.0,0,0,0.0
0,2.5622662784269323,-0.8539439082616495,0,0.0,0.0,-0.03288056310462154,0.9994592881002823,0.0,0.0,0.0,0,0,0.0
0,2.5899839933474835,-0.8557696184945873,0,0.0,0.0,-0.030884798107225296,0.999522950834985,0.0,0.0,0.0,0,0,0.0
0,2.617708778305588,-0.8574846220801471,0,0.0,0.0,-0.02918637740796178,0.9995739869433378,0.0,0.0,0.0,0,0,0.0
0,2.64543923138191,-0.8591053967262643,0,0.0,0.0,-0.02763095867086634,0.999618192172856,0.0,0.0,0.0,0,0,0.0
0,2.6731745941665173,-0.8606398638904074,0,0.0,0.0,-0.026401781180884373,0.9996514122185176,0.0,0.0,0.0,0,0,0.0
0,2.7009136467193215,-0.8621061182149937,0,0.0,0.0,-0.02525364022949336,0.9996810759713116,0.0,0.0,0.0,0,0,0.0
0,2.7286559941446082,-0.8635086507837055,0,0.0,0.0,-0.02439527177990926,0.9997023910718551,0.0,0.0,0.0,0,0,0.0
0,2.7564007091843186,-0.8648635403131069,0,0.0,0.0,-0.02362278929385327,0.999720942976578,0.0,0.0,0.0,0,0,0.0
0,2.7841474849524284,-0.8661755512680284,0,0.0,0.0,-0.022970667045140412,0.9997361394165469,0.0,0.0,0.0,0,0,0.0
0,2.8118959487555117,-0.8674513627120023,0,0.0,0.0,-0.022437094703017905,0.9997482567033001,0.0,0.0,0.0,0,0,0.0
0,2.8396457585766943,-0.8686975541739372,0,0.0,0.0,-0.022129655182371307,0.9997551091950014,0.0,0.0,0.0,0,0,0.0
0,2.867396329596778,-0.8699266783868983,0,0.0,0.0,-0.022032165529471737,0.999757262380265,0.0,0.0,0.0,0,0,0.0
0,2.895147139801338,-0.8711503904699013,0,0.0,0.0,-0.022027613434114964,0.9997573626867657,0.0,0.0,0.0,0,0,0.0
0,2.9228979611483603,-0.8723738498428554,0,0.0,0.0,-0.022117884253198123,0.9997553696760834,0.0,0.0,0.0,0,0,0.0
0,2.9506485611037028,-0.8736023205955226,0,0.0,0.0,-0.022375580134901898,0.9997496353655883,0.0,0.0,0.0,0,0,0.0
0,2.9783985240711264,-0.874845097155576,0,0.0,0.0,-0.022786912556915936,0.9997403445975978,0.0,0.0,0.0,0,0,0.0
0,3.0061474549942444,-0.8761107080340186,0,0.0,0.0,-0.023269893804777755,0.9997292193600797,0.0,0.0,0.0,0,0,0.0
0,3.0338951501077065,-0.8774031298544653,0,0.0,0.0,-0.023773695992794504,0.999717365748361,0.0,0.0,0.0,0,0,0.0
0,3.0616415285176424,-0.8787235174506887,0,0.0,0.0,-0.024420957279597484,0.9997017639504034,0.0,0.0,0.0,0,0,0.0
0,3.0893861738979504,-0.880079832676787,0,0.0,0.0,-0.025134540231720553,0.9996840775401697,0.0,0.0,0.0,0,0,0.0
0,3.117128854725025,-0.8814757548804506,0,0.0,0.0,-0.02596841081036393,0.9996627639559174,0.0,0.0,0.0,0,0,0.0
0,3.1448691681494685,-0.882917957843019,0,0.0,0.0,-0.026857218827055072,0.9996392798389205,0.0,0.0,0.0,0,0,0.0
0,3.172606873138184,-0.8844094873367275,0,0.0,0.0,-0.02780637208897907,0.999613328078037,0.0,0.0,0.0,0,0,0.0
0,3.2003416956754758,-0.8859536884559298,0,0.0,0.0,-0.02883771621821456,0.9995841065779896,0.0,0.0,0.0,0,0,0.0
0,3.2280732726823267,-0.8875551175004706,0,0.0,0.0,-0.0299061259035523,0.999552711783346,0.0,0.0,0.0,0,0,0.0
0,3.2558013628841844,-0.8892158257919055,0,0.0,0.0,-0.031038489854184916,0.9995181900033494,0.0,0.0,0.0,0,0,0.0
0,3.283525619114605,-0.8909393555252106,0,0.0,0.0,-0.03219892825758036,0.9994814800780769,0.0,0.0,0.0,0,0,0.0
0,3.3112457985045527,-0.8927272573292003,0,0.0,0.0,-0.033385343538484255,0.9994425540454126,0.0,0.0,0.0,0,0,0.0
0,3.338961655106598,-0.8945809647188551,0,0.0,0.0,-0.0346137605756801,0.9994007642476613,0.0,0.0,0.0,0,0,0.0
0,3.366672871083199,-0.8965027990951229,0,0.0,0.0,-0.03589411756031293,0.9993555985356596,0.0,0.0,0.0,0,0,0.0
0,3.3943790717678968,-0.8984956317250338,0,0.0,0.0,-0.0371542273605388,0.9993095433294137,0.0,0.0,0.0,0,0,0.0
0,3.4220801586228546,-0.9005583302792792,0,0.0,0.0,-0.038436221144798596,0.9992610554325172,0.0,0.0,0.0,0,0,0.0
0,3.449775861784194,-0.9026920979963897,0,0.0,0.0,-0.039726609602782306,0.9992105866580219,0.0,0.0,0.0,0,0,0.0
0,3.4774659615891643,-0.9048973896012303,0,0.0,0.0,-0.041025493440791753,0.9991581000462036,0.0,0.0,0.0,0,0,0.0
0,3.505150234305161,-0.9071746648278837,0,0.0,0.0,-0.042326159504311,0.9991038465653186,0.0,0.0,0.0,0,0,0.0
0,3.532828484095251,-0.9095240108707222,0,0.0,0.0,-0.04362690298525441,0.9990478934144825,0.0,0.0,0.0,0,0,0.0
0,3.560500522613913,-0.9119454200664787,0,0.0,0.0,-0.04491996084191391,0.9989905891038018,0.0,0.0,0.0,0,0,0.0
0,3.5881662002315773,-0.9144384544078111,0,0.0,0.0,-0.04620739647312758,0.9989318678023918,0.0,0.0,0.0,0,0,0.0
0,3.615825360037754,-0.9170027900114326,0,0.0,0.0,-0.04753888369566458,0.9988693881268812,0.0,0.0,0.0,0,0,0.0
0,3.6434775852898076,-0.9196408531041728,0,0.0,0.0,-0.048858496179201724,0.9988057105118627,0.0,0.0,0.0,0,0,0.0
0,3.6711227434759803,-0.9223519722703288,0,0.0,0.0,-0.05016468352936043,0.9987409596719257,0.0,0.0,0.0,0,0,0.0
0,3.6987607159496694,-0.9251353902797596,0,0.0,0.0,-0.05143736596170103,0.9986762224980237,0.0,0.0,0.0,0,0,0.0
0,3.726391504693165,-0.927989238853864,0,0.0,0.0,-0.05269210140658396,0.9986108062951042,0.0,0.0,0.0,0,0,0.0
0,3.7540150348292407,-0.9309125111800313,0,0.0,0.0,-0.05392755416903144,0.998544850720961,0.0,0.0,0.0,0,0,0.0
0,3.7816312469904267,-0.9339041268204458,0,0.0,0.0,-0.05511845745152394,0.9984798223540446,0.0,0.0,0.0,0,0,0.0
0,3.809240244526436,-0.9369616083540362,0,0.0,0.0,-0.0562865790076672,0.9984146538506001,0.0,0.0,0.0,0,0,0.0
0,3.8368420123610814,-0.9400836830927236,0,0.0,0.0,-0.057404674504076485,0.9983509920589457,0.0,0.0,0.0,0,0,0.0
0,3.864436718102475,-0.9432675727449439,0,0.0,0.0,-0.058497269531405834,0.9982875685178946,0.0,0.0,0.0,0,0,0.0
0,3.8920243886278842,-0.9465118559096907,0,0.0,0.0,-0.059563432248558985,0.9982245226094034,0.0,0.0,0.0,0,0,0.0
0,3.919605066268927,-0.9498150602830959,0,0.0,0.0,-0.06057291289290231,0.9981637752511703,0.0,0.0,0.0,0,0,0.0
0,3.947179006392464,-0.9531740429170481,0,0.0,0.0,-0.0615541424824213,0.9981037458817865,0.0,0.0,0.0,0,0,0.0
0,3.974746289033756,-0.9565872329273951,0,0.0,0.0,-0.06247636396315219,0.9980464437820235,0.0,0.0,0.0,0,0,0.0
0,4.002307217030753,-0.960051361420387,0,0.0,0.0,-0.06336917027424688,0.9979901543896881,0.0,0.0,0.0,0,0,0.0
0,4.029861903045129,-0.9635647951995838,0,0.0,0.0,-0.06423200047756786,0.9979349929302258,0.0,0.0,0.0,0,0,0.0
0,4.057410472495943,-0.9671258708074991,0,0.0,0.0,-0.0650329467190399,0.9978831173243881,0.0,0.0,0.0,0,0,0.0
0,4.084953290042667,-0.9707311641186539,0,0.0,0.0,-0.06580349547455741,0.9978326011828487,0.0,0.0,0.0,0,0,0.0
0,4.112490506708407,-0.9743789903995596,0,0.0,0.0,-0.06651237552444376,0.9977856001677391,0.0,0.0,0.0,0,0,0.0
0,4.140022512480746,-0.9780659398735173,0,0.0,0.0,-0.067190950134794,0.9977401346142108,0.0,0.0,0.0,0,0,0.0
0,4.1675494778263005,-0.981790334741981,0,0.0,0.0,-0.06783897776767756,0.9976962829916911,0.0,0.0,0.0,0,0,0.0
0,4.1950715818871585,-0.9855504845175792,0,0.0,0.0,-0.06842551620435362,0.9976562277318615,0.0,0.0,0.0,0,0,0.0
0,4.2225892457056124,-0.9893429924274149,0,0.0,0.0,-0.06898217153371863,0.9976178927878613,0.0,0.0,0.0,0,0,0.0
0,4.25010266015064,-0.9931662062388259,0,0.0,0.0,-0.06950884774182425,0.9975813350727869,0.0,0.0,0.0,0,0,0.0
0,4.277612022377618,-0.9970184689682514,0,0.0,0.0,-0.06997565141256908,0.9975486996680346,0.0,0.0,0.0,0,0,0.0
0,4.30511776727814,-1.0008964756390866,0,0.0,0.0,-0.070413622664438,0.9975178804128125,0.0,0.0,0.0,0,0,0.0
0,4.332620096263877,-1.0047986338408876,0,0.0,0.0,-0.0707947080459697,0.9974909068822061,0.0,0.0,0.0,0,0,0.0
0,4.360119435670137,-1.0087218048148452,0,0.0,0.0,-0.07114840654532918,0.9974657408884079,0.0,0.0,0.0,0,0,0.0
0,4.38761598590603,-1.01266447692861,0,0.0,0.0,-0.0714748487014506,0.9974424023486793,0.0,0.0,0.0,0,0,0.0
0,4.415109949572869,-1.016625146083959,0,0.0,0.0,-0.0717479245007605,0.9974227966764311,0.0,0.0,0.0,0,0,0.0
0,4.442601740424527,-1.020600869167919,0,0.0,0.0,-0.07199550731876445,0.9974049563371509,0.0,0.0,0.0,0,0,0.0
0,4.470091554142633,-1.0245902400475713,0,0.0,0.0,-0.07219369028210783,0.9973906311387987,0.0,0.0,0.0,0,0,0.0
0,4.497579780313936,-1.0285905350650553,0,0.0,0.0,-0.07235724873533736,0.9973787788776401,0.0,0.0,0.0,0,0,0.0
0,4.525066693011461,-1.032599845308755,0,0.0,0.0,-0.07247550186243405,0.9973701928721292,0.0,0.0,0.0,0,0,0.0
0,4.552552654213116,-1.0366156733793683,0,0.0,0.0,-0.07247498718376995,0.9973702302719449,0.0,0.0,0.0,0,0,0.0
0,4.580038619559378,-1.0406314730825035,0,0.0,0.0,-0.07240200178379122,0.9973755311504789,0.0,0.0,0.0,0,0,0.0
0,4.607525172344806,-1.0446432500261404,0,0.0,0.0,-0.07216071284104927,0.9973930175824731,0.0,0.0,0.0,0,0,0.0
0,4.635013662984932,-1.0486417273112203,0,0.0,0.0,-0.07182427647089562,0.9974173014889166,0.0,0.0,0.0,0,0,0.0
0,4.662504844835456,-1.0526216593122755,0,0.0,0.0,-0.07138408578969331,0.9974489020977314,0.0,0.0,0.0,0,0,0.0
0,4.6899995288518985,-1.0565773247566188,0,0.0,0.0,-0.07071898126668263,0.9974962785337109,0.0,0.0,0.0,0,0,0.0
0,4.717499463612376,-1.0604963203474638,0,0.0,0.0,-0.06993265483126992,0.9975517148440227,0.0,0.0,0.0,0,0,0.0
0,4.7450055427117235,-1.0643719558891598,0,0.0,0.0,-0.06901757387121361,0.9976154441952728,0.0,0.0,0.0,0,0,0.0
0,4.772518685739331,-1.068197122423316,0,0.0,0.0,-0.06783382938834286,0.9976966330455933,0.0,0.0,0.0,0,0,0.0
0,4.8000408286054705,-1.0719569881559459,0,0.0,0.0,-0.06650876335497775,0.9977858409483428,0.0,0.0,0.0,0,0,0.0
0,4.82757286107197,-1.075643738287867,0,0.0,0.0,-0.06489382674078176,0.9978921741605841,0.0,0.0,0.0,0,0,0.0
0,4.855116682808133,-1.0792413517243091,0,0.0,0.0,-0.06312867191075641,0.998005396169171,0.0,0.0,0.0,0,0,0.0
0,4.882673058962732,-1.082741504792083,0,0.0,0.0,-0.06120772464556269,0.9981250495021718,0.0,0.0,0.0,0,0,0.0
0,4.910242704209605,-1.0861355583027368,0,0.0,0.0,-0.058974191489716415,0.9982595077123655,0.0,0.0,0.0,0,0,0.0
0,4.937827262250612,-1.0894061998229734,0,0.0,0.0,-0.056525723015780856,0.9984011431471537,0.0,0.0,0.0,0,0,0.0
0,4.965427531286031,-1.0925414968494276,0,0.0,0.0,-0.05377296303144331,0.9985531875903352,0.0,0.0,0.0,0,0,0.0
0,4.993044668421966,-1.0955245614961624,0,0.0,0.0,-0.050865696649134276,0.9987055025904275,0.0,0.0,0.0,0,0,0.0
0,5.0206787062499885,-1.098346775448195,0,0.0,0.0,-0.04780049781010978,0.9988569028690274,0.0,0.0,0.0,0,0,0.0
0,5.048329545828272,-1.1009993230703174,0,0.0,0.0,-0.04445710125344809,0.9990112943045942,0.0,0.0,0.0,0,0,0.0
0,5.075997521725391,-1.1034667200849972,0,0.0,0.0,-0.04098732832501546,0.9991596663780906,0.0,0.0,0.0,0,0,0.0
0,5.103681968331879,-1.1057418803791612,0,0.0,0.0,-0.03729975913772507,0.9993041218609416,0.0,0.0,0.0,0,0,0.0
0,5.131382453219005,-1.107812647215314,0,0.0,0.0,-0.03352599862963614,0.9994378456992139,0.0,0.0,0.0,0,0,0.0
0,5.159097786964332,-1.1096741556511651,0,0.0,0.0,-0.029683309490698338,0.9995593534841638,0.0,0.0,0.0,0,0,0.0
0,5.186826614805314,-1.111322501742487,0,0.0,0.0,-0.025764965383001957,0.9996680281767606,0.0,0.0,0.0,0,0,0.0
0,5.21456751294747,-1.1127534135280686,0,0.0,0.0,-0.02183269279730492,0.9997616383544722,0.0,0.0,0.0,0,0,0.0
0,5.242318809254426,-1.113966051790331,0,0.0,0.0,-0.017926222358951163,0.9998393123657108,0.0,0.0,0.0,0,0,0.0
0,5.270078734285089,-1.1149617930034803,0,0.0,0.0,-0.014054375891868538,0.9999012323816238,0.0,0.0,0.0,0,0,0.0
0,5.297845538424994,-1.1157425145465156,0,0.0,0.0,-0.010231809370761805,0.999947653668431,0.0,0.0,0.0,0,0,0.0
0,5.325617500095938,-1.1163109186450197,0,0.0,0.0,-0.006554303506483206,0.9999785203220841,0.0,0.0,0.0,0,0,0.0
0,5.353392891268468,-1.1166750387962505,0,0.0,0.0,-0.00296667498891604,0.9999955994100724,0.0,0.0,0.0,0,0,0.0
0,5.3811701800928855,-1.116839853348128,0,0.0,0.0,0.0005180413888412157,0.9999998658165508,0.0,0.0,0.0,0,0,0.0
0,5.408947942961392,-1.116811073274832,0,0.0,0.0,0.0037880567679635336,0.9999928252872231,0.0,0.0,0.0,0,0,0.0
0,5.436724923551721,-1.1166006271865128,0,0.0,0.0,0.0069519977078087054,0.9999758345719514,0.0,0.0,0.0,0,0,0.0
0,5.464500016314381,-1.1162144144248567,0,0.0,0.0,0.009898812514581513,0.9999510055551728,0.0,0.0,0.0,0,0,0.0
0,5.492272350398315,-1.1156645073399813,0,0.0,0.0,0.012738276534321392,0.9999188648640124,0.0,0.0,0.0,0,0,0.0
0,5.5200411135267,-1.1149568827281746,0,0.0,0.0,0.015479501452914064,0.9998801853396082,0.0,0.0,0.0,0,0,0.0
0,5.547805579361965,-1.1140970134625243,0,0.0,0.0,0.018050048304529453,0.9998370846073895,0.0,0.0,0.0,0,0,0.0
0,5.575565256903976,-1.1130943963695341,0,0.0,0.0,0.020561905381473945,0.9997885816746875,0.0,0.0,0.0,0,0,0.0
0,5.603319546239925,-1.1119523098018744,0,0.0,0.0,0.023034040446899124,0.9997346812933372,0.0,0.0,0.0,0,0,0.0
0,5.631067848072186,-1.110672980408259,0,0.0,0.0,0.025487486470501038,0.9996751412501044,0.0,0.0,0.0,0,0,0.0
0,5.658809536296264,-1.1092574689283974,0,0.0,0.0,0.027975230583915534,0.9996086166464236,0.0,0.0,0.0,0,0,0.0
0,5.686543835544807,-1.1077038977314888,0,0.0,0.0,0.03061447100992107,0.9995312672271852,0.0,0.0,0.0,0,0,0.0
0,5.714269544109517,-1.1060038910090424,0,0.0,0.0,0.0333819737002102,0.999442666605683,0.0,0.0,0.0,0,0,0.0
0,5.741985413211288,-1.1041503705195146,0,0.0,0.0,0.036268559924532505,0.99934207935071,0.0,0.0,0.0,0,0,0.0
0,5.769690112742454,-1.1021367761811791,0,0.0,0.0,0.03961273337261099,0.9992151076493742,0.0,0.0,0.0,0,0,0.0
0,5.797380714484385,-1.0999377960900014,0,0.0,0.0,0.043206414095728146,0.9990661668683354,0.0,0.0,0.0,0,0,0.0
0,5.825054781472217,-1.0975396812836267,0,0.0,0.0,0.04736954734378318,0.998877432913791,0.0,0.0,0.0,0,0,0.0
0,5.852707899582464,-1.0949109939586796,0,0.0,0.0,0.05185391309039586,0.9986546809068757,0.0,0.0,0.0,0,0,0.0
0,5.8803362980100875,-1.092034096568065,0,0.0,0.0,0.05703890618341899,0.9983719563275999,0.0,0.0,0.0,0,0,0.0
0,5.9079333292979435,-1.0888704274373358,0,0.0,0.0,0.06259387115351107,0.9980390810454356,0.0,0.0,0.0,0,0,0.0
0,5.935493440814278,-1.0853998091237176,0,0.0,0.0,0.0685343979721298,0.9976487539683482,0.0,0.0,0.0,0,0,0.0
0,5.963010276163978,-1.0816012948603362,0,0.0,0.0,0.07523048879505917,0.9971661714858043,0.0,0.0,0.0,0,0,0.0
0,5.990473630250403,-1.0774336671664042,0,0.0,0.0,0.08229068456161599,0.9966083700402986,0.0,0.0,0.0,0,0,0.0
0,6.017875199318979,-1.0728774679991568,0,0.0,0.0,0.08965081727244345,0.9959732581562534,0.0,0.0,0.0,0,0,0.0
0,6.045206462150222,-1.0679169226338676,0,0.0,0.0,0.09770303903343727,0.9952156129018629,0.0,0.0,0.0,0,0,0.0
0,6.072453913048202,-1.0625149454186433,0,0.0,0.0,0.10602568050512434,0.9943633918610566,0.0,0.0,0.0,0,0,0.0
0,6.099607166107837,-1.0566578312357848,0,0.0,0.0,0.11478583182506952,0.9933902620884839,0.0,0.0,0.0,0,0,0.0
0,6.126652955708516,-1.0503229908157432,0,0.0,0.0,0.1237127499447601,0.992318071739654,0.0,0.0,0.0,0,0,0.0
0,6.153580464347466,-1.043502857622699,0,0.0,0.0,0.13277761645057118,0.991145854337143,0.0,0.0,0.0,0,0,0.0
0,6.180378803490227,-1.0361916362841572,0,0.0,0.0,0.14202909566316257,0.9898624833708489,0.0,0.0,0.0,0,0,0.0
0,6.207035899933844,-1.0283811210983764,0,0.0,0.0,0.15132500718918962,0.988484062693573,0.0,0.0,0.0,0,0,0.0
0,6.2335414967226885,-1.0200709901042928,0,0.0,0.0,0.16063886562638707,0.987013249581923,0.0,0.0,0.0,0,0,0.0
0,6.259885671992148,-1.0112625073947898,0,0.0,0.0,0.16991872327021593,0.9854580800227982,0.0,0.0,0.0,0,0,0.0
0,6.286059429074493,-1.001959853017357,0,0.0,0.0,0.1791378390907733,0.9838239855817138,0.0,0.0,0.0,0,0,0.0
0,6.31205440877482,-0.9921687361938692,0,0.0,0.0,0.1882734367562364,0.9821166493915046,0.0,0.0,0.0,0,0,0.0
0,6.337862915053265,-0.9818961541451772,0,0.0,0.0,0.19719124790634998,0.9803650400484181,0.0,0.0,0.0,0,0,0.0
0,6.3634804490393275,-0.9711561871645713,0,0.0,0.0,0.20596314596478002,0.9785597490722223,0.0,0.0,0.0,0,0,0.0
0,6.388901514734011,-0.9599591180293813,0,0.0,0.0,0.21457044442464807,0.9767085155661381,0.0,0.0,0.0,0,0,0.0
0,6.414121488310644,-0.9483161857928055,0,0.0,0.0,0.2228131641304231,0.9748611664694564,0.0,0.0,0.0,0,0,0.0
0,6.439141171304543,-0.9362488579545314,0,0.0,0.0,0.2308443568734831,0.972990690037509,0.0,0.0,0.0,0,0,0.0
0,6.463958442576747,-0.9237705573942205,0,0.0,0.0,0.23864912270571198,0.9711058625257053,0.0,0.0,0.0,0,0,0.0
0,6.488572142367402,-0.9108953594972131,0,0.0,0.0,0.24621315517300008,0.9692157046910436,0.0,0.0,0.0,0,0,0.0
0,6.512982091379611,-0.8976379341252573,0,0.0,0.0,0.2532766632125264,0.9673938866211262,0.0,0.0,0.0,0,0,0.0
0,6.537196032039162,-0.8840258065910575,0,0.0,0.0,0.2600875559375975,0.9655850367763613,0.0,0.0,0.0,0,0,0.0
0,6.56121572444174,-0.8700737703541086,0,0.0,0.0,0.26665356939496426,0.9637924433865027,0.0,0.0,0.0,0,0,0.0
0,6.585043272993347,-0.8557960650660583,0,0.0,0.0,0.2732353684501404,0.9619472092728977,0.0,0.0,0.0,0,0,0.0
0,6.608673408183787,-0.8411939539463213,0,0.0,0.0,0.27957474293288487,0.9601239311224418,0.0,0.0,0.0,0,0,0.0
0,6.63210885057901,-0.826281376100362,0,0.0,0.0,0.2851412949231688,0.9584854938545176,0.0,0.0,0.0,0,0,0.0
0,6.655369652908428,-0.8110978319402092,0,0.0,0.0,0.290595632938831,0.9568459531799673,0.0,0.0,0.0,0,0,0.0
0,6.678455996137144,-0.7956503177519153,0,0.0,0.0,0.29590541665474834,0.9552172446068904,0.0,0.0,0.0,0,0,0.0
0,6.701369328603499,-0.7799473201540708,0,0.0,0.0,0.30142685172574774,0.9534893041134254,0.0,0.0,0.0,0,0,0.0
0,6.724099431551204,-0.7639802490933438,0,0.0,0.0,0.306878244713323,0.9517487814132833,0.0,0.0,0.0,0,0,0.0
0,6.746645306157964,-0.7477540826795576,0,0.0,0.0,0.3123255866498428,0.9499751196341047,0.0,0.0,0.0,0,0,0.0
0,6.769003791042621,-0.7312706639827533,0,0.0,0.0,0.31769932099962356,0.9481915109493325,0.0,0.0,0.0,0,0,0.0
0,6.791174187789086,-0.7145351195824083,0,0.0,0.0,0.32315159725020093,0.946347211754039,0.0,0.0,0.0,0,0,0.0
0,6.813150468077677,-0.6975454744139866,0,0.0,0.0,0.32881707645078545,0.9443936309793487,0.0,0.0,0.0,0,0,0.0
0,6.834921541979586,-0.6802936548163548,0,0.0,0.0,0.33470194160229466,0.942324047389036,0.0,0.0,0.0,0,0,0.0
0,6.856475686995567,-0.6627715610230414,0,0.0,0.0,0.34071246792916243,0.940167545811713,0.0,0.0,0.0,0,0,0.0
0,6.877804298895435,-0.6449756274230184,0,0.0,0.0,0.3470335931030312,0.9378526991260406,0.0,0.0,0.0,0,0,0.0
0,6.89889139252088,-0.6268941612019581,0,0.0,0.0,0.35351743742974884,0.9354279349223561,0.0,0.0,0.0,0,0,0.0
0,6.919726138156052,-0.608522489732294,0,0.0,0.0,0.3603840677446342,0.9328040114170988,0.0,0.0,0.0,0,0,0.0
0,6.940288545029153,-0.5898465061743492,0,0.0,0.0,0.3674403487890507,0.9300470902496178,0.0,0.0,0.0,0,0,0.0
0,6.96056563336703,-0.5708611268837069,0,0.0,0.0,0.37463701027097557,0.9271715647792619,0.0,0.0,0.0,0,0,0.0
0,6.980546028396764,-0.5515637500483089,0,0.0,0.0,0.38232627250069295,0.9240273921024884,0.0,0.0,0.0,0,0,0.0
0,7.000203062916527,-0.5319370862421378,0,0.0,0.0,0.3901946340976066,0.9207323973454149,0.0,0.0,0.0,0,0,0.0
0,7.019522404445496,-0.5119779284152485,0,0.0,0.0,0.39823266296180104,0.9172844412451094,0.0,0.0,0.0,0,0,0.0
0,7.038489668120516,-0.4916838936524447,0,0.0,0.0,0.4064306151007942,0.9136816486658742,0.0,0.0,0.0,0,0,0.0
0,7.057090454515448,-0.4710534384039125,0,0.0,0.0,0.4149463948752103,0.9098458602313174,0.0,0.0,0.0,0,0,0.0
0,7.075302648369896,-0.45007914620418366,0,0.0,0.0,0.4235783303054899,0.9058594803255157,0.0,0.0,0.0,0,0,0.0
0,7.093112726041875,-0.4287623436393125,0,0.0,0.0,0.43231635510772515,0.9017220021194843,0.0,0.0,0.0,0,0,0.0
0,7.110507313214451,-0.4071051675683827,0,0.0,0.0,0.44093294266197675,0.8975400492877462,0.0,0.0,0.0,0,0,0.0
0,7.127483876551976,-0.3851187800634148,0,0.0,0.0,0.4497146102307702,0.893172306637967,0.0,0.0,0.0,0,0,0.0
0,7.144025919293364,-0.36280363363293644,0,0.0,0.0,0.45852502549828006,0.8886814958081448,0.0,0.0,0.0,0,0,0.0
0,7.160123408237353,-0.3401657055481987,0,0.0,0.0,0.46734752421925385,0.8840736912758653,0.0,0.0,0.0,0,0,0.0
0,7.17576709110436,-0.3172118360568013,0,0.0,0.0,0.4761947172742821,0.8793398610549089,0.0,0.0,0.0,0,0,0.0
0,7.190947012839919,-0.29394866958329857,0,0.0,0.0,0.4850017466868481,0.8745131821251789,0.0,0.0,0.0,0,0,0.0
0,7.205656640934958,-0.2703853128704438,0,0.0,0.0,0.49375468877781753,0.8696012346529417,0.0,0.0,0.0,0,0,0.0
0,7.219890324674398,-0.24653144137172886,0,0.0,0.0,0.5024163421887345,0.8646258260667977,0.0,0.0,0.0,0,0,0.0
0,7.233644647957825,-0.22239798887759588,0,0.0,0.0,0.5109829115833129,0.8595908701643127,0.0,0.0,0.0,0,0,0.0
0,7.246916673739483,-0.19799597523276288,0,0.0,0.0,0.5194434903572134,0.8545048041559015,0.0,0.0,0.0,0,0,0.0
0,7.259704365979789,-0.17333669978844352,0,0.0,0.0,0.5277877581619868,0.8493762901884796,0.0,0.0,0.0,0,0,0.0
0,7.272006592776141,-0.1484316771198589,0,0.0,0.0,0.5359258459462117,0.844265057696241,0.0,0.0,0.0,0,0,0.0
0,7.28382789764541,-0.1232948179393764,0,0.0,0.0,0.5439199128558682,0.8391371332499026,0.0,0.0,0.0,0,0,0.0
0,7.295169627000902,-0.09793796258429806,0,0.0,0.0,0.5517625109361398,0.8340012778919743,0.0,0.0,0.0,0,0,0.0
0,7.306033967641205,-0.07237292707243,0,0.0,0.0,0.5593358193115474,0.828941156678253,0.0,0.0,0.0,0,0,0.0
0,7.316430825487598,-0.046614233681780415,0,0.0,0.0,0.5667394672834719,0.8238970665218116,0.0,0.0,0.0,0,0,0.0
0,7.326364513055556,-0.02067340120528115,0,0.0,0.0,0.5740976305316625,0.8187868529830769,0.0,0.0,0.0,0,0,0.0
0,7.335831841423219,0.005441242806277804,0,0.0,0.0,0.5814097185131241,0.813610926191684,0.0,0.0,0.0,0,0,0.0
0,7.344829771379802,0.03172131500496164,0,0.0,0.0,0.5886751443827168,0.808369701551207,0.0,0.0,0.0,0,0,0.0
0,7.353355414401245,0.05815837893692112,0,0.0,0.0,0.5958933250402555,0.8030635997058193,0.0,0.0,0.0,0,0,0.0
0,7.361406033577493,0.08474394775067098,0,0.0,0.0,0.6030636811773064,0.7976930465065345,0.0,0.0,0.0,0,0,0.0
0,7.368979044491097,0.11146948692154715,0,0.0,0.0,0.6101856373236811,0.7922584729770286,0.0,0.0,0.0,0,0,0.0
0,7.376072016046869,0.13832641699146797,0,0.0,0.0,0.6172586218936222,0.7867603152790476,0.0,0.0,0.0,0,0,0.0
0,7.382682671252313,0.16530611632312,0,0.0,0.0,0.6242820672316765,0.7811990146774026,0.0,0.0,0.0,0,0,0.0
0,7.388808887948588,0.1923999238676843,0,0.0,0.0,0.6312554096582532,0.775575017504555,0.0,0.0,0.0,0,0,0.0
0,7.394448699491765,0.21959914194521457,0,0.0,0.0,0.6381780895148638,0.7698887751247959,0.0,0.0,0.0,0,0,0.0
0,7.399600295384162,0.24689503903677462,0,0.0,0.0,0.6450495512090376,0.7641407438980198,0.0,0.0,0.0,0,0,0.0
0,7.404262021855552,0.27427885258743895,0,0.0,0.0,0.6518692432589126,0.7583313851431,0.0,0.0,0.0,0,0,0.0
0,7.408432382394055,0.3017417918192565,0,0.0,0.0,0.658636618337495,0.7524611651008636,0.0,0.0,0.0,0,0,0.0
0,7.412110038226553,0.3292750405532745,0,0.0,0.0,0.6653511333165862,0.7465305548966729,0.0,0.0,0.0,0,0,0.0
0,7.41529380874846,0.3568697600397168,0,0.0,0.0,0.672012249310373,0.7405400305026144,0.0,0.0,0.0,0,0,0.0
0,7.4179826719027275,0.3845170917954076,0,0.0,0.0,0.6786194317186761,0.7344900726992987,0.0,0.0,0.0,0,0,0.0
0,7.42017576450794,0.4122081604475302,0,0.0,0.0,0.685172150269856,0.7283811670372744,0.0,0.0,0.0,0,0,0.0
0,7.421872382535417,0.4399340765828078,0,0.0,0.0,0.6916698790633709,0.7222138037980594,0.0,0.0,0.0,0,0,0.0
0,7.42307198133522,0.4676859396011912,0,0.0,0.0,0.6981120966119833,0.7159884779547929,0.0,0.0,0.0,0,0,0.0
0,7.423774175810999,0.49545484057313804,0,0.0,0.0,0.7044982858836134,0.7097056891325098,0.0,0.0,0.0,0,0,0.0
0,7.423978740543613,0.5232318650995659,0,0.0,0.0,0.7108279343428346,0.7033659415680424,0.0,0.0,0.0,0,0,0.0
0,7.4236856098634965,0.5510080961735612,0,0.0,0.0,0.7171005339920075,0.6969697440695526,0.0,0.0,0.0,0,0,0.0
0,7.42289487787174,0.578774617042925,0,0.0,0.0,0.7233155814120504,0.690517609975696,0.0,0.0,0.0,0,0,0.0
0,7.421606798409882,0.6065225140726378,0,0.0,0.0,0.7294725778028425,0.6840100571144228,0.0,0.0,0.0,0,0,0.0
0,7.41982178497842,0.6342428796063226,0,0.0,0.0,0.7355710290232552,0.6774476077614191,0.0,0.0,0.0,0,0,0.0
0,7.417540410604068,0.6619268148257899,0,0.0,0.0,0.7416104456308109,0.6708307885981903,0.0,0.0,0.0,0,0,0.0
0,7.414763407655805,0.6895654326077438,0,0.0,0.0,0.7475903429209644,0.6641601306697918,0.0,0.0,0.0,0,0,0.0
0,7.411491667609766,0.7171498603767362,0,0.0,0.0,0.7535102409660027,0.657436169342208,0.0,0.0,0.0,0,0,0.0
0,7.407726240763064,0.7446712429534481,0,0.0,0.0,0.7593696646535638,0.6506594442593867,0.0,0.0,0.0,0,0,0.0
0,7.403468335896616,0.7721207453973884,0,0.0,0.0,0.7651681437247667,0.6438304992999282,0.0,0.0,0.0,0,0,0.0
0,7.398719319887104,0.7994895558430948,0,0.0,0.0,0.7709052128119531,0.6369498825334354,0.0,0.0,0.0,0,0,0.0
0,7.393480717268179,0.8267688883289274,0,0.0,0.0,0.7765804114760371,0.630018146176528,0.0,0.0,0.0,0,0,0.0
0,7.387754209741052,0.8539499856175462,0,0.0,0.0,0.7821932842434572,0.6230358465485225,0.0,0.0,0.0,0,0,0.0
0,7.3815416356346315,0.881024122007168,0,0.0,0.0,0.7877433806427327,0.6160035440267846,0.0,0.0,0.0,0,0,0.0
0,7.374844989315385,0.9079826061326993,0,0.0,0.0,0.793230255240616,0.6089218030017542,0.0,0.0,0.0,0,0,0.0
0,7.367666420547102,0.934816783755847,0,0.0,0.0,0.798653467677842,0.6017911918316504,0.0,0.0,0.0,0,0,0.0
0,7.3600082338007775,0.9615180405433097,0,0.0,0.0,0.8040125827044702,0.5946122827968554,0.0,0.0,0.0,0,0,0.0
0,7.351872887514827,0.9880778048321597,0,0.0,0.0,0.8093071702148161,0.5873856520539863,0.0,0.0,0.0,0,0,0.0
